[{"id":"ream_naval_base","name":"Ream Naval Base","lat":10.5034,"lon":103.609,"type":"china","country":"Cambodia","arm":"PLA Navy(Access Right)","status":"controversial","description":"PLA Navy(Access Right). Host: Cambodia. Status disputed."},{"id":"chinese_pla_support_base","name":"Chinese PLA Support Base","lat":11.5915,"lon":43.0602,"type":"china","country":"Djibouti","arm":"Navy","status":"active","description":"Navy. Host: Djibouti."},{"id":"chinese_naval_intelligence_base","name":"Chinese Naval Intelligence Base","lat":14.1463,"lon":93.3588,"type":"china","country":"Myanmar","arm":"Army","status":"controversial","description":"Army. Host: Myanmar. Status disputed."},{"id":"military_base","name":"Military Base","lat":37.4381,"lon":74.9128,"type":"china","country":"Tajikistan","arm":"Army","status":"controversial","description":"Army. Host: Tajikistan. Status disputed."},{"id":"unnamed_military_base","name":"Unnamed Military Base","lat":9.54583,"lon":112.8875,"type":"china","country":"Disputed","arm":"Combined arms","status":"active","description":"Combined arms."},{"id":"unnamed_military_base_2","name":"Unnamed Military Base","lat":10.92361,"lon":114.08472,"type":"china","country":"Disputed","arm":"Combined arms","status":"active","description":"Combined arms."},{"id":"unnamed_military_base_3","name":"Unnamed Military Base","lat":9.9,"lon":115.53333,"type":"china","country":"Disputed","arm":"Combined arms","status":"active","description":"Combined arms."},{"id":"unnamed_military_base_4","name":"Unnamed Military Base","lat":16.83444,"lon":112.33972,"type":"china","country":"Disputed","arm":"Combined arms","status":"active","description":"Combined arms."},{"id":"ndjamena_air_force_base","name":"N'Djamena Air Force Base","lat":12.13361,"lon":15.03389,"type":"france","country":"Chad","arm":"Air Force","status":"active","description":"Air Force. Host: Chad."},{"id":"naval_base_of_hron","name":"Naval base of Héron","lat":11.55663,"lon":43.14419,"type":"france","country":"Djibouti","arm":"Navy","status":"active","description":"Navy. Host: Djibouti."},{"id":"les_lments_franais_au_gabon","name":"Les éléments français au Gabon","lat":0.42048,"lon":9.43806,"type":"france","country":"Gabon","arm":"Combined arms","status":"active","description":"Combined arms. Host: Gabon."},{"id":"fassberg_air_base","name":"Fassberg Air Base","lat":52.91944,"lon":10.18889,"type":"france","country":"Germany","arm":"Franco-German training facilities","status":"active","description":"Franco-German training facilities. Host: Germany."},{"id":"les_forces_franaises_en_cte_divoire_ffci","name":"Les forces françaises en Côte d'Ivoire (FFCI)","lat":7.50357,"lon":-5.54897,"type":"france","country":"Ivory Coast","arm":"Combined arms","status":"active","description":"Combined arms. Host: Ivory Coast."},{"id":"rayak_air_base","name":"Rayak Air Base","lat":33.85222,"lon":35.99028,"type":"france","country":"Lebanon","arm":"Combined arms","status":"active","description":"Combined arms. Host: Lebanon."},{"id":"niamey_air_force_base","name":"Niamey Air Force Base","lat":13.48167,"lon":2.17028,"type":"france","country":"Niger","arm":"Air Force","status":"active","description":"Air Force. Host: Niger."},{"id":"les_lments_franais_au_sngal","name":"Les éléments français au Sénégal","lat":14.75069,"lon":-17.45357,"type":"france","country":"Senegal","arm":"Combined arms","status":"active","description":"Combined arms. Host: Senegal."},{"id":"unnamed_military_base_5","name":"Unnamed Military Base","lat":36.89111,"lon":38.35361,"type":"france","country":"Syria","arm":"Combined arms","status":"active","description":"Combined arms. Host: Syria."},{"id":"unnamed_military_base_6","name":"Unnamed Military Base","lat":36.5875,"lon":38.29972,"type":"france","country":"Syria","arm":"Combined arms","status":"active","description":"Combined arms. Host: Syria."},{"id":"unnamed_military_base_7","name":"Unnamed Military Base","lat":36.38528,"lon":38.85944,"type":"france","country":"Syria","arm":"Combined arms","status":"active","description":"Combined arms. Host: Syria."},{"id":"abu_dhabi_base","name":"Abu Dhabi Base","lat":24.52151,"lon":54.39611,"type":"france","country":"United Arab Emirates","arm":"Navy, Air Force","status":"active","description":"Navy, Air Force. Host: United Arab Emirates."},{"id":"indian_military_training_team","name":"Indian military training team","lat":27.36042,"lon":89.30152,"type":"india","country":"Bhutan","arm":"Radar facilities","status":"active","description":"Radar facilities. Host: Bhutan."},{"id":"port_of_shahid_beheshti","name":"Port of Shahid Beheshti","lat":25.29752,"lon":60.61111,"type":"india","country":"Iran","arm":"Navy & Air Force (Access Right)","status":"active","description":"Navy & Air Force (Access Right). Host: Iran."},{"id":"port_of_sittwe","name":"Port of Sittwe","lat":20.13937,"lon":92.90043,"type":"india","country":"Myanmar","arm":"Listening Post","status":"planned","description":"Listening Post. Host: Myanmar. Planned/under construction."},{"id":"ras_al_hadd_listening_post","name":"Ras al Hadd Listening post","lat":22.53308,"lon":59.79831,"type":"india","country":"Oman","arm":"Listening Post","status":"active","description":"Listening Post. Host: Oman."},{"id":"muscat_naval_base","name":"Muscat naval base","lat":23.58764,"lon":58.27884,"type":"india","country":"Oman","arm":"Navy(Berthing right)","status":"active","description":"Navy(Berthing right). Host: Oman."},{"id":"duqm_port","name":"Duqm port","lat":19.666,"lon":57.72627,"type":"india","country":"Oman","arm":"Navy(Berthing right)","status":"active","description":"Navy(Berthing right). Host: Oman."},{"id":"naval_facilities_coastal_surveillance_ra","name":"Naval Facilities, Coastal Surveillance Radar (CSR) station","lat":-9.73661,"lon":46.51097,"type":"india","country":"Seychelles","arm":"Navy","status":"planned","description":"Navy. Host: Seychelles. Planned/under construction."},{"id":"farkhor_air_base","name":"Farkhor air base","lat":37.47011,"lon":69.38089,"type":"india","country":"Tajikistan","arm":"Combined arms","status":"active","description":"Combined arms. Host: Tajikistan."},{"id":"coastal_surveillance_radar_station","name":"Coastal Surveillance Radar station","lat":-0.62728,"lon":73.09722,"type":"india","country":"Maldives","arm":"Radar facilities","status":"active","description":"Radar facilities. Host: Maldives."},{"id":"coastal_surveillance_radar_csr_station","name":"Coastal Surveillance Radar (CSR) station","lat":-12.01845,"lon":49.26322,"type":"india","country":"Madagascar","arm":"Radar facilities","status":"active","description":"Radar facilities. Host: Madagascar."},{"id":"coastal_surveillance_radar_csr_station_2","name":"Coastal Surveillance Radar (CSR) station","lat":-19.99894,"lon":57.62941,"type":"india","country":"Mauritius","arm":"Radar facilities","status":"active","description":"Radar facilities. Host: Mauritius."},{"id":"listening_post_and_coastal_surveillance_","name":"Listening post and Coastal Surveillance Radar station","lat":21.91089,"lon":90.0497,"type":"india","country":"Bangladesh","arm":"Radar facilities","status":"planned","description":"Radar facilities. Host: Bangladesh. Planned/under construction."},{"id":"berth_rights_and_right_to_station_its_tr","name":"Berth rights and right to station its troops in Qatar","lat":25.30761,"lon":51.2093,"type":"india","country":"Qatar","arm":"Combined arms","status":"active","description":"Combined arms. Host: Qatar."},{"id":"japan_selfdefense_force_base_djibouti","name":"Japan Self-Defense Force Base Djibouti","lat":11.55311,"lon":43.14423,"type":"japan","country":"Djibouti","arm":"India shares the maritime assets of Japan","status":"active","description":"India shares the maritime assets of Japan. Host: Djibouti."},{"id":"heart_miliraty_base","name":"Heart miliraty base","lat":34.35091,"lon":62.20565,"type":"italy","country":"Afghanistan","arm":"Combined arms","status":"active","description":"Combined arms. Host: Afghanistan."},{"id":"djibouti_militaray_base","name":"Djibouti militaray base","lat":11.54816,"lon":43.17267,"type":"italy","country":"Djibouti","arm":"Combined arms","status":"active","description":"Combined arms. Host: Djibouti."},{"id":"ahmad_aljaber_air_base","name":"Ahmad al-Jaber Air Base","lat":28.93492,"lon":47.79197,"type":"italy","country":"Kuwait","arm":"Air Force","status":"active","description":"Air Force. Host: Kuwait."},{"id":"libya_military_base","name":"Libya Military Base","lat":24.96046,"lon":10.17728,"type":"italy","country":"Libya","arm":"Combined arms","status":"active","description":"Combined arms. Host: Libya."},{"id":"al_minhad_air_base","name":"Al Minhad air base","lat":25.02694,"lon":55.36611,"type":"italy","country":"United Arab Emirates","arm":"Air Force","status":"active","description":"Air Force. Host: United Arab Emirates."},{"id":"russian_102nd_military_base","name":"Russian 102nd Military Base","lat":40.79,"lon":43.825,"type":"russia","country":"Armenia","arm":"Combined arms","status":"active","description":"Combined arms. Host: Armenia."},{"id":"russian_3624th_airbase","name":"Russian 3624th Airbase","lat":40.128,"lon":44.472,"type":"russia","country":"Armenia","arm":"Air Force","status":"active","description":"Air Force. Host: Armenia."},{"id":"vileyka_vlf_transmitter","name":"Vileyka VLF transmitter","lat":54.4636,"lon":26.778,"type":"russia","country":"Belarus","arm":"Navy","status":"active","description":"Navy. Host: Belarus."},{"id":"hantsavichy_radar_station","name":"Hantsavichy Radar Station","lat":52.857,"lon":26.481,"type":"russia","country":"Belarus","arm":"Russian Aerospace Defence Forces","status":"active","description":"Russian Aerospace Defence Forces. Host: Belarus."},{"id":"7th_krasnodar_base","name":"7th Krasnodar base","lat":43.101,"lon":40.624,"type":"russia","country":"Georgia","arm":"Combined arms","status":"active","description":"Combined arms. Host: Georgia."},{"id":"russian_4th_military_base","name":"Russian 4th Military Base","lat":42.39,"lon":43.922,"type":"russia","country":"Georgia","arm":"Combined arms","status":"active","description":"Combined arms. Host: Georgia."},{"id":"baikonur_cosmodrome","name":"Baikonur Cosmodrome","lat":45.964,"lon":63.305,"type":"russia","country":"Kazakhstan","arm":"Spaceport","status":"active","description":"Spaceport. Host: Kazakhstan."},{"id":"sary_shagan","name":"Sary Shagan","lat":46.383,"lon":72.866,"type":"russia","country":"Kazakhstan","arm":"Anti-ballistic missile testing range","status":"active","description":"Anti-ballistic missile testing range. Host: Kazakhstan."},{"id":"balkhash_radar_station","name":"Balkhash Radar Station","lat":46.603,"lon":74.53,"type":"russia","country":"Kazakhstan","arm":"Russian early warning radars","status":"active","description":"Russian early warning radars. Host: Kazakhstan."},{"id":"kant_air_base","name":"Kant (air base)","lat":42.853,"lon":74.846,"type":"russia","country":"Kyrgyzstan","arm":"military air base","status":"active","description":"military air base. Host: Kyrgyzstan."},{"id":"russian_forces_in_moldova","name":"Russian forces in Moldova","lat":46.84,"lon":29.643,"type":"russia","country":"Moldova","arm":"Task Force","status":"active","description":"Task Force. Host: Moldova."},{"id":"khmeimim_air_base","name":"Khmeimim Air Base","lat":35.411,"lon":35.945,"type":"russia","country":"Syria","arm":"Russian Aerospace Defence Forces","status":"active","description":"Russian Aerospace Defence Forces. Host: Syria."},{"id":"russian_naval_facility_in_tartus","name":"Russian naval facility in Tartus","lat":34.915,"lon":35.874,"type":"russia","country":"Syria","arm":"Navy","status":"active","description":"Navy. Host: Syria."},{"id":"tiyas_military_airbase","name":"Tiyas Military Airbase","lat":34.5225,"lon":37.62972,"type":"russia","country":"Syria","arm":"Air Force","status":"active","description":"Air Force. Host: Syria."},{"id":"shayrat_airbase","name":"Shayrat Airbase","lat":34.49,"lon":36.90889,"type":"russia","country":"Syria","arm":"Air Force","status":"active","description":"Air Force. Host: Syria."},{"id":"russian_201st_military_base","name":"Russian 201st Military Base","lat":38.536,"lon":68.78,"type":"russia","country":"Tajikistan","arm":"Combined arms","status":"active","description":"Combined arms. Host: Tajikistan."},{"id":"military_headquarters","name":"Military headquarters","lat":11.79819,"lon":-66.15139,"type":"russia","country":"Venezuela","arm":"Combined arms","status":"planned","description":"Combined arms. Host: Venezuela. Planned/under construction."},{"id":"unnamed_military_base_8","name":"Unnamed Military Base","lat":13.01534,"lon":42.73724,"type":"uae","country":"Eritrea","arm":"Combined arms","status":"controversial","description":"Combined arms. Host: Eritrea. Status disputed."},{"id":"unnamed_military_base_9","name":"Unnamed Military Base","lat":31.99809,"lon":21.19361,"type":"uae","country":"Libya","arm":"Air Force","status":"controversial","description":"Air Force. Host: Libya. Status disputed."},{"id":"unnamed_military_base_10","name":"Unnamed Military Base","lat":10.438,"lon":44.997,"type":"uae","country":"Republic of Somaliland","arm":"Combined arms","status":"active","description":"Combined arms. Host: Republic of Somaliland."},{"id":"unnamed_military_base_11","name":"Unnamed Military Base","lat":12.51,"lon":53.92,"type":"uae","country":"Yemen","arm":"Combined arms","status":"active","description":"Combined arms. Host: Yemen."},{"id":"rothera_research_station","name":"Rothera Research Station","lat":-67.56833,"lon":-68.12583,"type":"uk","country":"Disputed","arm":"British Antarctic Survey (BAS) base","status":"active","description":"British Antarctic Survey (BAS) base."},{"id":"hms_jufair","name":"HMS Jufair","lat":26.205,"lon":50.615,"type":"uk","country":"Bahrain","arm":"British Royal Navy base","status":"active","description":"British Royal Navy base. Host: Bahrain."},{"id":"raf_belize","name":"RAF Belize","lat":17.544,"lon":-88.305,"type":"uk","country":"Belize","arm":"Royal Air Force","status":"active","description":"Royal Air Force. Host: Belize."},{"id":"british_army_jungle_warfare_training_sch","name":"British Army Jungle Warfare Training School","lat":4.608,"lon":114.325,"type":"uk","country":"Brunei","arm":"British Army's training establishment","status":"active","description":"British Army's training establishment. Host: Brunei."},{"id":"sittang_camp","name":"Sittang Camp","lat":4.82943,"lon":114.668,"type":"uk","country":"Brunei","arm":"British Army's training establishment","status":"active","description":"British Army's training establishment. Host: Brunei."},{"id":"kuala_belait_accommodation","name":"Kuala Belait accommodation","lat":4.58665,"lon":114.247,"type":"uk","country":"Brunei","arm":"British Army's training establishment","status":"active","description":"British Army's training establishment. Host: Brunei."},{"id":"british_army_training_unit_suffield","name":"British Army Training Unit Suffield","lat":50.273,"lon":-111.175,"type":"uk","country":"Canada","arm":"Army","status":"active","description":"Army. Host: Canada."},{"id":"raf_troodos","name":"RAF Troodos","lat":34.912,"lon":32.883,"type":"uk","country":"Cyprus","arm":"Royal Air Force","status":"active","description":"Royal Air Force. Host: Cyprus."},{"id":"raf_akrotiri","name":"RAF Akrotiri","lat":34.59,"lon":32.987,"type":"uk","country":"Cyprus","arm":"Royal Air Force","status":"active","description":"Royal Air Force. Host: Cyprus."},{"id":"ayios_nikolaos_station","name":"Ayios Nikolaos Station","lat":35.093,"lon":33.886,"type":"uk","country":"Cyprus","arm":"British Armed Forces","status":"active","description":"British Armed Forces. Host: Cyprus."},{"id":"westfalen_garrison","name":"Westfalen Garrison","lat":51.778,"lon":8.72,"type":"uk","country":"Germany","arm":"British garrison with facilities","status":"active","description":"British garrison with facilities. Host: Germany."},{"id":"wulfen_barracks","name":"Wulfen barracks","lat":51.7053,"lon":6.99875,"type":"uk","country":"Germany","arm":"Munitions storage facility, British Forces Germany","status":"active","description":"Munitions storage facility, British Forces Germany. Host: Germany."},{"id":"ayrshire_barracks","name":"Ayrshire barracks","lat":51.1708,"lon":6.39294,"type":"uk","country":"Germany","arm":"Vehicle storage site, British Forces Germany","status":"active","description":"Vehicle storage site, British Forces Germany. Host: Germany."},{"id":"raf_gibraltar","name":"RAF Gibraltar","lat":36.15209,"lon":-5.34446,"type":"uk","country":"Disputed","arm":"Royal Air Force","status":"active","description":"Royal Air Force."},{"id":"port_of_gibraltar","name":"Port of Gibraltar","lat":36.1485,"lon":-5.3652,"type":"uk","country":"Gibraltar","arm":"British Royal Navy","status":"active","description":"British Royal Navy. Host: Gibraltar."},{"id":"british_army_training_unit_kenya","name":"British Army Training Unit Kenya","lat":0.035,"lon":37.054,"type":"uk","country":"Kenya","arm":"Training support unit of the British Army","status":"active","description":"Training support unit of the British Army. Host: Kenya."},{"id":"british_gurkha dharan","name":"British Gurkha Dharan","lat":26.8069,"lon":87.2692,"type":"uk","country":"Nepal","arm":"Movement base and regional recruiting centre","status":"active","description":"Movement base and regional recruiting centre. Host: Nepal."},{"id":"headquarters_british_gurkhas_nepal","name":"Headquarters British Gurkhas Nepal","lat":27.6684,"lon":85.3169,"type":"uk","country":"Nepal","arm":"Focal point for organisation of transit to and fro","status":"active","description":"Focal point for organisation of transit to and fro. Host: Nepal."},{"id":"british_gurkha_camp","name":"British Gurkha Camp","lat":28.2475,"lon":83.9914,"type":"uk","country":"Nepal","arm":"Main recruitment centre","status":"active","description":"Main recruitment centre. Host: Nepal."},{"id":"bardufoss_air_station","name":"Bardufoss Air Station","lat":69.0521,"lon":18.5169,"type":"uk","country":"Norway","arm":"Cold weather training for Royal Air Force, British","status":"active","description":"Cold weather training for Royal Air Force, British. Host: Norway."},{"id":"uk_joint_logistics_support_base","name":"UK Joint Logistics Support Base","lat":19.669,"lon":57.71,"type":"uk","country":"Oman","arm":"Submarines and Queen Elizabeth-class aircraft carr","status":"active","description":"Submarines and Queen Elizabeth-class aircraft carr. Host: Oman."},{"id":"omanibritish_joint_training_area","name":"Omani-British Joint Training Area","lat":19.014,"lon":57.7487,"type":"uk","country":"Oman","arm":"Royal Army of Oman, British Army","status":"active","description":"Royal Army of Oman, British Army. Host: Oman."},{"id":"seeb_overseas_processing_centre","name":"Seeb, Overseas Processing Centre","lat":23.6749,"lon":58.1208,"type":"uk","country":"Oman","arm":"GCHQ's Middle East spy hub","status":"active","description":"GCHQ's Middle East spy hub. Host: Oman."},{"id":"raf_al_udeid","name":"RAF Al Udeid","lat":25.11,"lon":51.319,"type":"uk","country":"Qatar","arm":"Royal Air Force","status":"active","description":"Royal Air Force. Host: Qatar."},{"id":"british_naval_facility_base","name":"British naval facility, base","lat":1.46411,"lon":103.826,"type":"uk","country":"Singapore","arm":"British Defence Singapore Support Unit (BDSSU)","status":"active","description":"British Defence Singapore Support Unit (BDSSU). Host: Singapore."},{"id":"raf_mount_pleasant","name":"RAF Mount Pleasant","lat":-51.822,"lon":-58.447,"type":"uk","country":"United Kingdoms","arm":"Royal Air Force station","status":"active","description":"Royal Air Force station. Host: United Kingdoms."},{"id":"raf_ascension","name":"RAF Ascension","lat":-7.969,"lon":-14.393,"type":"uk","country":"United Kingdoms","arm":"Royal Air Force","status":"active","description":"Royal Air Force. Host: United Kingdoms."},{"id":"naval_support_facility_diego_garcia","name":"Naval Support Facility Diego Garcia","lat":7.313,"lon":72.411,"type":"uk","country":"United Kingdoms","arm":"Naval air facility","status":"active","description":"Naval air facility. Host: United Kingdoms."},{"id":"ascension_air_force_station","name":"Ascension Air Force Station","lat":-7.9504,"lon":-14.4112,"type":"uk","country":"United Kingdoms","arm":"Royal Air Force","status":"active","description":"Royal Air Force. Host: United Kingdoms."},{"id":"warwick_camp","name":"Warwick Camp","lat":32.2566,"lon":-64.8153,"type":"uk","country":"United Kingdoms","arm":"Royal Bermuda Regiment","status":"active","description":"Royal Bermuda Regiment. Host: United Kingdoms."},{"id":"cayman_islands_regiment","name":"Cayman Islands Regiment","lat":19.2931,"lon":-81.3784,"type":"uk","country":"United Kingdoms","arm":"A single territorial infantry battalion of the Bri","status":"active","description":"A single territorial infantry battalion of the Bri. Host: United Kingdoms."},{"id":"a_port_facility_and_depot_for raf_mount_","name":"A port facility and depot for RAF Mount Pleasant","lat":-51.9,"lon":-58.4377,"type":"uk","country":"United Kingdoms","arm":"Royal Navy","status":"active","description":"Royal Navy. Host: United Kingdoms."},{"id":"rrh_an_early_warning_and_airspace_contro","name":"RRH, an early warning and airspace control network","lat":-52.153,"lon":-60.5981,"type":"uk","country":"United Kingdoms","arm":"British Forces South Atlantic Islands","status":"active","description":"British Forces South Atlantic Islands. Host: United Kingdoms."},{"id":"rrh_an_early_warning_and_airspace_contro_2","name":"RRH, an early warning and airspace control network","lat":-51.4252,"lon":-60.5643,"type":"uk","country":"United Kingdoms","arm":"British Forces South Atlantic Islands","status":"active","description":"British Forces South Atlantic Islands. Host: United Kingdoms."},{"id":"rrh_an_early_warning_and_airspace_contro_3","name":"RRH, an early warning and airspace control network","lat":-51.6734,"lon":-58.1103,"type":"uk","country":"United Kingdoms","arm":"British Forces South Atlantic Islands","status":"active","description":"British Forces South Atlantic Islands. Host: United Kingdoms."},{"id":"port_stanley_airport","name":"Port Stanley Airport","lat":-51.6985,"lon":-57.8415,"type":"uk","country":"Disputed","arm":"Falkland Islands Defence Force Headquarters","status":"active","description":"Falkland Islands Defence Force Headquarters."},{"id":"jersey_field_squadron","name":"Jersey Field Squadron","lat":49.1752,"lon":-2.10827,"type":"uk","country":"United Kingdoms","arm":"Royal Engineer uni","status":"active","description":"Royal Engineer uni. Host: United Kingdoms."},{"id":"royal_montserrat_defence_force_headquart","name":"Royal Montserrat Defence Force Headquarters","lat":16.7937,"lon":-62.2112,"type":"uk","country":"United Kingdoms","arm":"Royal Montserrat Defence Force","status":"active","description":"Royal Montserrat Defence Force. Host: United Kingdoms."},{"id":"firebase_fiddlers_greenfire_base","name":"Firebase Fiddler's Green(Fire base)","lat":31.44139,"lon":64.10472,"type":"us-nato","country":"Afghanistan","arm":"Marine Corps","status":"active","description":"Marine Corps. Host: Afghanistan."},{"id":"forward_operating_base_delhi","name":"Forward Operating Base Delhi","lat":31.13278,"lon":64.18944,"type":"us-nato","country":"Afghanistan","arm":"Marine Corps","status":"active","description":"Marine Corps. Host: Afghanistan."},{"id":"camp_dwyer","name":"Camp Dwyer","lat":31.10111,"lon":64.06722,"type":"us-nato","country":"Afghanistan","arm":"Combined arms","status":"active","description":"Combined arms. Host: Afghanistan."},{"id":"forward_operating_base_geronimo","name":"Forward Operating Base Geronimo","lat":31.40167,"lon":64.25889,"type":"us-nato","country":"Afghanistan","arm":"Combined arms","status":"active","description":"Combined arms. Host: Afghanistan."},{"id":"joint_region_marianas_andersen_afb","name":"Joint Region Marianas Andersen AFB","lat":13.6495,"lon":144.863,"type":"us-nato","country":"America","arm":"Navy","status":"active","description":"Navy. Host: America."},{"id":"andersen_air_force_base","name":"Andersen Air Force Base","lat":13.5792,"lon":144.923,"type":"us-nato","country":"America","arm":"Air Force","status":"active","description":"Air Force. Host: America."},{"id":"sector_guam","name":"Sector Guam","lat":13.4373,"lon":144.713,"type":"us-nato","country":"America","arm":"Coastal Guard","status":"active","description":"Coastal Guard. Host: America."},{"id":"robertson_barracks","name":"Robertson Barracks","lat":-12.44,"lon":130.97,"type":"us-nato","country":"Australia","arm":"Marines","status":"active","description":"Marines. Host: Australia."},{"id":"naval_support_activity_bahrain","name":"Naval Support Activity Bahrain","lat":26.2086,"lon":50.6097,"type":"us-nato","country":"Bahrain","arm":"Navy","status":"active","description":"Navy. Host: Bahrain."},{"id":"isa_air_base","name":"Isa Air Base","lat":25.9121,"lon":50.5931,"type":"us-nato","country":"Bahrain","arm":"Air Force","status":"active","description":"Air Force. Host: Bahrain."},{"id":"usag_brussels","name":"USAG Brussels","lat":50.8504,"lon":4.34878,"type":"us-nato","country":"Belgium","arm":"Army","status":"active","description":"Army. Host: Belgium."},{"id":"aitos_logistics_center","name":"Aitos Logistics Center","lat":42.7,"lon":27.25,"type":"us-nato","country":"Bulgaria","arm":"Air Force","status":"active","description":"Air Force. Host: Bulgaria."},{"id":"bezmer","name":"Bezmer","lat":42.4833,"lon":26.5,"type":"us-nato","country":"Bulgaria","arm":"Air Force","status":"active","description":"Air Force. Host: Bulgaria."},{"id":"graf_ignatievo","name":"Graf Ignatievo","lat":42.15,"lon":24.75,"type":"us-nato","country":"Bulgaria","arm":"Air Force","status":"active","description":"Air Force. Host: Bulgaria."},{"id":"contingency_location_garoua","name":"Contingency Location Garoua","lat":9.33307,"lon":13.3717,"type":"us-nato","country":"Cameroon","arm":"Army","status":"active","description":"Army. Host: Cameroon."},{"id":"guantanamo","name":"Guantanamo","lat":20.1444,"lon":-75.2092,"type":"us-nato","country":"Cuba","arm":"Navy","status":"active","description":"Navy. Host: Cuba."},{"id":"camp_lemonnier","name":"Camp Lemonnier","lat":11.5436,"lon":43.1486,"type":"us-nato","country":"Djibouti","arm":"Navy","status":"active","description":"Navy. Host: Djibouti."},{"id":"raf_lakenheath","name":"RAF Lakenheath","lat":52.4175,"lon":0.52211,"type":"us-nato","country":"United Kingdoms","arm":"Air Force","status":"active","description":"Air Force. Host: United Kingdoms."},{"id":"royal_air_force_alconbury","name":"Royal Air Force Alconbury","lat":52.369,"lon":-0.26009,"type":"us-nato","country":"United Kingdoms","arm":"Air Force","status":"active","description":"Air Force. Host: United Kingdoms."},{"id":"royal_air_force_croughton","name":"Royal Air Force Croughton","lat":52.25,"lon":-0.83333,"type":"us-nato","country":"United Kingdoms","arm":"Air Force","status":"active","description":"Air Force. Host: United Kingdoms."},{"id":"raf_mildenhall","name":"RAF Mildenhall","lat":51.4256,"lon":-1.69988,"type":"us-nato","country":"United Kingdoms","arm":"Air Force","status":"active","description":"Air Force. Host: United Kingdoms."},{"id":"campbell_barracks","name":"Campbell Barracks","lat":49.4077,"lon":8.69079,"type":"us-nato","country":"Germany","arm":"Army","status":"active","description":"Army. Host: Germany."},{"id":"landstuhl_medical_center","name":"Landstuhl Medical Center","lat":49.4131,"lon":7.57021,"type":"us-nato","country":"Germany","arm":"Army","status":"active","description":"Army. Host: Germany."},{"id":"patrick_henry_village","name":"Patrick Henry Village","lat":49.4077,"lon":8.69079,"type":"us-nato","country":"Germany","arm":"Army","status":"active","description":"Army. Host: Germany."},{"id":"usag_ansbach","name":"USAG Ansbach","lat":49.3,"lon":10.5833,"type":"us-nato","country":"Germany","arm":"Army","status":"active","description":"Army. Host: Germany."},{"id":"usag_bamberg","name":"USAG Bamberg","lat":49.8987,"lon":10.9007,"type":"us-nato","country":"Germany","arm":"Army","status":"active","description":"Army. Host: Germany."},{"id":"usag_baumholder","name":"USAG Baumholder","lat":49.6174,"lon":7.33381,"type":"us-nato","country":"Germany","arm":"Army","status":"active","description":"Army. Host: Germany."},{"id":"usag_garmisch","name":"USAG Garmisch","lat":47.4948,"lon":11.1078,"type":"us-nato","country":"Germany","arm":"Army","status":"active","description":"Army. Host: Germany."},{"id":"usag_grafenwoehr","name":"USAG Grafenwoehr","lat":49.7173,"lon":11.9064,"type":"us-nato","country":"Germany","arm":"Army","status":"active","description":"Army. Host: Germany."},{"id":"usag_heidelberg","name":"USAG Heidelberg","lat":49.4077,"lon":8.69079,"type":"us-nato","country":"Germany","arm":"Army","status":"active","description":"Army. Host: Germany."},{"id":"usaf_hessen","name":"USAF Hessen","lat":50.1342,"lon":8.91418,"type":"us-nato","country":"Germany","arm":"Army","status":"active","description":"Army. Host: Germany."},{"id":"usag_kaiserslautern","name":"USAG Kaiserslautern","lat":49.443,"lon":7.77161,"type":"us-nato","country":"Germany","arm":"Army","status":"active","description":"Army. Host: Germany."},{"id":"usag_mannheim","name":"USAG Mannheim","lat":49.4077,"lon":8.69079,"type":"us-nato","country":"Germany","arm":"Army","status":"active","description":"Army. Host: Germany."},{"id":"usag_schweinfurt","name":"USAG Schweinfurt","lat":50.0494,"lon":10.2217,"type":"us-nato","country":"Germany","arm":"Army","status":"active","description":"Army. Host: Germany."},{"id":"usag_stuttgart","name":"USAG Stuttgart","lat":48.7823,"lon":9.17702,"type":"us-nato","country":"Germany","arm":"Army","status":"active","description":"Army. Host: Germany."},{"id":"usag_wiesbaden","name":"USAG Wiesbaden","lat":50.0826,"lon":8.24932,"type":"us-nato","country":"Germany","arm":"Army","status":"active","description":"Army. Host: Germany."},{"id":"ramstein","name":"Ramstein","lat":49.443,"lon":7.77161,"type":"us-nato","country":"Germany","arm":"Air Force","status":"active","description":"Air Force. Host: Germany."},{"id":"spangdahlem","name":"Spangdahlem","lat":49.7556,"lon":6.63935,"type":"us-nato","country":"Germany","arm":"Air Force","status":"active","description":"Air Force. Host: Germany."},{"id":"panzer_kaserne","name":"Panzer Kaserne","lat":48.6849,"lon":9.02955,"type":"us-nato","country":"Germany","arm":"Marines","status":"active","description":"Marines. Host: Germany."},{"id":"camp_victory","name":"Camp Victory","lat":33.3406,"lon":44.4009,"type":"us-nato","country":"Iraq","arm":"Army","status":"active","description":"Army. Host: Iraq."},{"id":"forward_operating_base_abu_ghraib","name":"Forward Operating Base Abu Ghraib","lat":33.307,"lon":44.1869,"type":"us-nato","country":"Iraq","arm":"Army","status":"active","description":"Army. Host: Iraq."},{"id":"fob_grizzly","name":"FOB Grizzly","lat":33.8081,"lon":44.5334,"type":"us-nato","country":"Iraq","arm":"Army","status":"active","description":"Army. Host: Iraq."},{"id":"camp_baharia","name":"Camp Baharia","lat":33.3558,"lon":43.7861,"type":"us-nato","country":"Iraq","arm":"Marines","status":"active","description":"Marines. Host: Iraq."},{"id":"ain_assad_air_base","name":"Ain Assad Air Base","lat":33.7986,"lon":42.4391,"type":"us-nato","country":"Iraq","arm":"Army,Air Force,Marines","status":"active","description":"Army,Air Force,Marines. Host: Iraq."},{"id":"dimona_radar_facility","name":"Dimona Radar Facility","lat":30.9844,"lon":35.0735,"type":"us-nato","country":"Israel","arm":"US military","status":"active","description":"US military. Host: Israel."},{"id":"nsa_gaeta","name":"NSA Gaeta","lat":41.2141,"lon":13.5708,"type":"us-nato","country":"Italy","arm":"Navy","status":"active","description":"Navy. Host: Italy."},{"id":"naval_support_activity","name":"Naval Support Activity","lat":41.2142,"lon":9.40833,"type":"us-nato","country":"Italy","arm":"Navy","status":"active","description":"Navy. Host: Italy."},{"id":"naval_support_activity_2","name":"Naval Support Activity","lat":40.8333,"lon":14.25,"type":"us-nato","country":"Italy","arm":"Navy","status":"active","description":"Navy. Host: Italy."},{"id":"camp_darby","name":"Camp Darby","lat":43.6272,"lon":10.292,"type":"us-nato","country":"Italy","arm":"Army","status":"active","description":"Army. Host: Italy."},{"id":"caserma_ederle","name":"Caserma Ederle","lat":45.5573,"lon":11.5409,"type":"us-nato","country":"Italy","arm":"Army","status":"active","description":"Army. Host: Italy."},{"id":"aviano","name":"Aviano","lat":46.0706,"lon":12.5947,"type":"us-nato","country":"Italy","arm":"Air Force","status":"active","description":"Air Force. Host: Italy."},{"id":"fleet_actvities_sasebo","name":"Fleet Actvities Sasebo","lat":33.1592,"lon":129.723,"type":"us-nato","country":"Japan","arm":"Navy","status":"active","description":"Navy. Host: Japan."},{"id":"fleet_activities","name":"Fleet Activities","lat":25.7722,"lon":126.669,"type":"us-nato","country":"Japan","arm":"Navy","status":"active","description":"Navy. Host: Japan."},{"id":"fleep_activities","name":"Fleep Activities","lat":35.2836,"lon":139.667,"type":"us-nato","country":"Japan","arm":"Navy","status":"active","description":"Navy. Host: Japan."},{"id":"camp_zama","name":"Camp Zama","lat":35.4889,"lon":139.389,"type":"us-nato","country":"Japan","arm":"Army","status":"active","description":"Army. Host: Japan."},{"id":"fort_buckner","name":"Fort Buckner","lat":25.7722,"lon":126.669,"type":"us-nato","country":"Japan","arm":"Army","status":"active","description":"Army. Host: Japan."},{"id":"torii_station","name":"Torii Station","lat":25.7722,"lon":126.669,"type":"us-nato","country":"Japan","arm":"Army","status":"active","description":"Army. Host: Japan."},{"id":"kadena","name":"Kadena","lat":25.7722,"lon":126.669,"type":"us-nato","country":"Japan","arm":"Air Force","status":"active","description":"Air Force. Host: Japan."},{"id":"misawsa","name":"Misawsa","lat":40.6868,"lon":141.39,"type":"us-nato","country":"Japan","arm":"Air Force","status":"active","description":"Air Force. Host: Japan."},{"id":"yokota","name":"Yokota","lat":35.7394,"lon":139.347,"type":"us-nato","country":"Japan","arm":"Air Force","status":"active","description":"Air Force. Host: Japan."},{"id":"unnamed_military_base_12","name":"Unnamed Military Base","lat":25.7722,"lon":126.669,"type":"us-nato","country":"Japan","arm":"Marines","status":"active","description":"Marines. Host: Japan."},{"id":"unnamed_military_base_13","name":"Unnamed Military Base","lat":34.15,"lon":132.183,"type":"us-nato","country":"Japan","arm":"Marines","status":"active","description":"Marines. Host: Japan."},{"id":"camp_courtney","name":"Camp Courtney","lat":26.3761,"lon":127.859,"type":"us-nato","country":"Japan","arm":"Marines","status":"active","description":"Marines. Host: Japan."},{"id":"camp_foster","name":"Camp Foster","lat":26.3029,"lon":127.767,"type":"us-nato","country":"Japan","arm":"Marines","status":"active","description":"Marines. Host: Japan."},{"id":"camp_gonsalves","name":"Camp Gonsalves","lat":25.7722,"lon":126.669,"type":"us-nato","country":"Japan","arm":"Marines","status":"active","description":"Marines. Host: Japan."},{"id":"camp_hansen","name":"Camp Hansen","lat":25.7722,"lon":126.669,"type":"us-nato","country":"Japan","arm":"Marines","status":"active","description":"Marines. Host: Japan."},{"id":"camp_kinser","name":"Camp Kinser","lat":25.7722,"lon":126.669,"type":"us-nato","country":"Japan","arm":"Marines","status":"active","description":"Marines. Host: Japan."},{"id":"camp_schwab","name":"Camp Schwab","lat":25.7722,"lon":126.669,"type":"us-nato","country":"Japan","arm":"Marines","status":"active","description":"Marines. Host: Japan."},{"id":"camp_sd_butler","name":"Camp SD Butler","lat":25.7722,"lon":126.669,"type":"us-nato","country":"Japan","arm":"Marines","status":"active","description":"Marines. Host: Japan."},{"id":"yontan_airfield","name":"Yontan Airfield","lat":25.7722,"lon":126.669,"type":"us-nato","country":"Japan","arm":"Marines","status":"active","description":"Marines. Host: Japan."},{"id":"far_east_activities","name":"Far East Activities","lat":35.7431,"lon":139.35,"type":"us-nato","country":"Japan","arm":"Coastal Guard","status":"active","description":"Coastal Guard. Host: Japan."},{"id":"naval_air_facility_atsugi","name":"Naval Air Facility Atsugi","lat":35.4567,"lon":139.45,"type":"us-nato","country":"Japan","arm":"Navy","status":"active","description":"Navy. Host: Japan."},{"id":"camp_fuji","name":"Camp Fuji","lat":35.3171,"lon":138.933,"type":"us-nato","country":"Japan","arm":"Marines","status":"active","description":"Marines. Host: Japan."},{"id":"fleet_activities_okinawa","name":"Fleet Activities Okinawa","lat":26.5043,"lon":127.997,"type":"us-nato","country":"Japan","arm":"Navy","status":"active","description":"Navy. Host: Japan."},{"id":"torii_station_2","name":"TORII Station","lat":26.4938,"lon":127.851,"type":"us-nato","country":"Japan","arm":"Army","status":"active","description":"Army. Host: Japan."},{"id":"kadena_air_base","name":"Kadena Air Base","lat":26.3545,"lon":127.766,"type":"us-nato","country":"Japan","arm":"Air Force","status":"active","description":"Air Force. Host: Japan."},{"id":"marine_corps_base_camp_smedley_d_bulter","name":"Marine Corps Base Camp Smedley D. Bulter","lat":26.4843,"lon":127.955,"type":"us-nato","country":"Japan","arm":"Marines","status":"active","description":"Marines. Host: Japan."},{"id":"camp_bondsteel","name":"Camp Bondsteel","lat":42.3667,"lon":21.1333,"type":"us-nato","country":"Kosovo","arm":"Army","status":"active","description":"Army. Host: Kosovo."},{"id":"ali_al_salem_air_base","name":"Ali Al Salem Air Base","lat":29.3487,"lon":47.5235,"type":"us-nato","country":"Kuwait","arm":"Air Force","status":"active","description":"Air Force. Host: Kuwait."},{"id":"camp_arifjan","name":"Camp Arifjan","lat":28.8751,"lon":48.1589,"type":"us-nato","country":"Kuwait","arm":"Air Force,Army,Marines,Navy,Coastal Guard","status":"active","description":"Air Force,Army,Marines,Navy,Coastal Guard. Host: Kuwait."},{"id":"camp_buehring","name":"Camp Buehring","lat":29.6952,"lon":47.4212,"type":"us-nato","country":"Kuwait","arm":"Base","status":"active","description":"Base. Host: Kuwait."},{"id":"kuwait_naval_base","name":"Kuwait Naval Base","lat":28.8643,"lon":48.2775,"type":"us-nato","country":"Kuwait","arm":"Army, Navy, Coastal Guard","status":"active","description":"Army, Navy, Coastal Guard. Host: Kuwait."},{"id":"usag_schinnen","name":"USAG Schinnen","lat":50.9433,"lon":5.88889,"type":"us-nato","country":"Netherlands","arm":"Army","status":"active","description":"Army. Host: Netherlands."},{"id":"niger_air_base_201","name":"Niger Air Base 201","lat":16.9212,"lon":8.02595,"type":"us-nato","country":"Niger","arm":"Air Force","status":"active","description":"Air Force. Host: Niger."},{"id":"masirah_aira_base","name":"Masirah Aira Base","lat":20.6671,"lon":58.8971,"type":"us-nato","country":"Oman","arm":"Air Force","status":"active","description":"Air Force. Host: Oman."},{"id":"rafo_thumrait","name":"RAFO Thumrait","lat":17.6641,"lon":54.0255,"type":"us-nato","country":"Oman","arm":"Air Force","status":"active","description":"Air Force. Host: Oman."},{"id":"antonio_bautista_air_base","name":"Antonio Bautista Air Base","lat":9.74346,"lon":118.76,"type":"us-nato","country":"Philippines","arm":"Air Force","status":"active","description":"Air Force. Host: Philippines."},{"id":"cesar_basa_air_base","name":"Cesar Basa Air Base","lat":14.9862,"lon":120.494,"type":"us-nato","country":"Philippines","arm":"Air Force","status":"active","description":"Air Force. Host: Philippines."},{"id":"fort_magsaysay","name":"Fort Magsaysay","lat":15.435,"lon":121.091,"type":"us-nato","country":"Philippines","arm":"Army","status":"active","description":"Army. Host: Philippines."},{"id":"lumbia_airfield","name":"Lumbia Airfield","lat":8.4055,"lon":124.61,"type":"us-nato","country":"Philippines","arm":"Air Force","status":"active","description":"Air Force. Host: Philippines."},{"id":"mactanbenito_ebuen_air_base","name":"Mactan-Benito Ebuen Air Base","lat":10.3129,"lon":123.978,"type":"us-nato","country":"Philippines","arm":"Air Force","status":"active","description":"Air Force. Host: Philippines."},{"id":"lajes_field","name":"Lajes Field","lat":38.3833,"lon":-28.2667,"type":"us-nato","country":"Portugal","arm":"Air Force","status":"active","description":"Air Force. Host: Portugal."},{"id":"camp_santiago","name":"Camp Santiago","lat":17.9775,"lon":-66.298,"type":"us-nato","country":"Puerto Rico","arm":"Army","status":"active","description":"Army. Host: Puerto Rico."},{"id":"al_udeid","name":"Al Udeid","lat":25.2793,"lon":51.5224,"type":"us-nato","country":"Quatar","arm":"Air Force","status":"active","description":"Air Force. Host: Quatar."},{"id":"prince_sultan_air_base","name":"Prince Sultan Air Base","lat":24.0769,"lon":47.564,"type":"us-nato","country":"Saudi Arabia","arm":"Air Force","status":"active","description":"Air Force. Host: Saudi Arabia."},{"id":"comlog_westpac","name":"COMLOG Westpac","lat":1.28967,"lon":103.85,"type":"us-nato","country":"Singapore","arm":"Navy","status":"active","description":"Navy. Host: Singapore."},{"id":"fleet_actvities_chinhae","name":"Fleet Actvities Chinhae","lat":35.1028,"lon":129.04,"type":"us-nato","country":"South Korea","arm":"Navy","status":"active","description":"Navy. Host: South Korea."},{"id":"camp_red_cloud","name":"Camp Red Cloud","lat":37.7415,"lon":127.047,"type":"us-nato","country":"South Korea","arm":"Army","status":"active","description":"Army. Host: South Korea."},{"id":"camp_stanley","name":"Camp Stanley","lat":37.7415,"lon":127.047,"type":"us-nato","country":"South Korea","arm":"Army","status":"active","description":"Army. Host: South Korea."},{"id":"usag_daegu","name":"USAG Daegu","lat":35.8703,"lon":128.591,"type":"us-nato","country":"South Korea","arm":"Army","status":"active","description":"Army. Host: South Korea."},{"id":"kunsan_ab","name":"Kunsan AB","lat":35.9022,"lon":126.625,"type":"us-nato","country":"South Korea","arm":"Air Force","status":"active","description":"Air Force. Host: South Korea."},{"id":"us_army_garrison_humphreys","name":"U.S. Army Garrison Humphreys","lat":36.9651,"lon":127.033,"type":"us-nato","country":"South Korea","arm":"Army","status":"active","description":"Army. Host: South Korea."},{"id":"osan_air_base","name":"Osan Air Base","lat":37.091,"lon":127.031,"type":"us-nato","country":"South Korea","arm":"Air Force","status":"active","description":"Air Force. Host: South Korea."},{"id":"k16_air_base","name":"K-16 Air Base","lat":37.4377,"lon":127.109,"type":"us-nato","country":"South Korea","arm":"Air Force","status":"active","description":"Air Force. Host: South Korea."},{"id":"usag_yongsan","name":"USAG Yongsan","lat":37.5331,"lon":126.983,"type":"us-nato","country":"South Korea","arm":"Army","status":"active","description":"Army. Host: South Korea."},{"id":"us_army_garrison_casey","name":"U.S. Army Garrison CASEY","lat":37.8842,"lon":127.05,"type":"us-nato","country":"South Korea","arm":"Army","status":"active","description":"Army. Host: South Korea."},{"id":"naval_station","name":"Naval Station","lat":36.6224,"lon":-6.35859,"type":"us-nato","country":"Spain","arm":"Navy","status":"active","description":"Navy. Host: Spain."},{"id":"izmir","name":"Izmir","lat":38.4127,"lon":27.1384,"type":"us-nato","country":"Turkey","arm":"Air Force","status":"active","description":"Air Force. Host: Turkey."},{"id":"al_dhafra_air_base","name":"Al Dhafra Air Base","lat":24.24,"lon":54.551,"type":"us-nato","country":"United Arab Emirates","arm":"Air Force,Army","status":"active","description":"Air Force,Army. Host: United Arab Emirates."},{"id":"port_of_jebel_ali","name":"Port of Jebel Ali","lat":25.0249,"lon":55.0399,"type":"us-nato","country":"United Arab Emirates","arm":"Air Force, Navy","status":"active","description":"Air Force, Navy. Host: United Arab Emirates."},{"id":"fujairah_naval_base","name":"Fujairah Naval Base","lat":25.2523,"lon":56.3652,"type":"us-nato","country":"United Arab Emirates","arm":"Navy","status":"active","description":"Navy. Host: United Arab Emirates."},{"id":"navy_support_facility","name":"Navy Support Facility","lat":-7.29861,"lon":72.4016,"type":"us-nato","country":"United Kingdom","arm":"Navy","status":"active","description":"Navy. Host: United Kingdom."},{"id":"norfolk","name":"Norfolk Naval","lat":36.95,"lon":-76.31,"type":"us-nato","description":"World largest naval base. Atlantic Fleet HQ."},{"id":"fort_liberty","name":"Fort Liberty","lat":35.14,"lon":-79,"type":"us-nato","description":"Army Special Ops. XVIII Airborne Corps."},{"id":"pendleton","name":"Camp Pendleton","lat":33.38,"lon":-117.4,"type":"us-nato","description":"USMC West Coast. 1st Marine Division."},{"id":"san_diego","name":"Naval San Diego","lat":32.68,"lon":-117.13,"type":"us-nato","description":"Pacific Fleet. Carrier homeport."},{"id":"nellis","name":"Nellis AFB","lat":36.24,"lon":-115.03,"type":"us-nato","description":"Air combat training. Red Flag exercises."},{"id":"langley","name":"Langley AFB","lat":37.08,"lon":-76.36,"type":"us-nato","description":"Air Combat Command HQ. F-22 wing."},{"id":"cheyenne","name":"Cheyenne Mtn","lat":38.74,"lon":-104.85,"type":"us-nato","description":"NORAD. Missile warning, space control."},{"id":"peterson","name":"Peterson SFB","lat":38.82,"lon":-104.71,"type":"us-nato","description":"US Space Command HQ. Space operations."},{"id":"kings_bay","name":"Kings Bay","lat":30.8,"lon":-81.52,"type":"us-nato","description":"Ohio-class submarine base. Atlantic deterrent."},{"id":"kitsap","name":"Naval Kitsap","lat":47.56,"lon":-122.66,"type":"us-nato","description":"Trident submarine base. Pacific deterrent."},{"id":"rota","name":"Naval Rota","lat":36.62,"lon":-6.35,"type":"us-nato","description":"US/Spanish naval base. Aegis destroyers, Atlantic access."},{"id":"incirlik","name":"Incirlik AB","lat":37,"lon":35.43,"type":"us-nato","description":"US/Turkish base. Nuclear weapons storage site."},{"id":"kaliningrad","name":"Kaliningrad","lat":54.71,"lon":20.51,"type":"russia","description":"Russian exclave. Baltic Fleet, Iskander missiles."},{"id":"sevastopol","name":"Sevastopol","lat":44.6,"lon":33.5,"type":"russia","description":"Black Sea Fleet HQ. Crimea (occupied)."},{"id":"vladivostok","name":"Vladivostok","lat":43.12,"lon":131.9,"type":"russia","description":"Pacific Fleet HQ. Nuclear submarines."},{"id":"murmansk","name":"Murmansk","lat":68.97,"lon":33.09,"type":"russia","description":"Northern Fleet. Strategic nuclear submarines."}]